[
  {
    "name": "Nadvoznjak-Temerinska",
    "reading": 90,
    "lat": 45.268453,
    "lon": 19.842737
  },
  {
    "name": "Nadvoznjak-Kisacka",
    "reading": 70,
    "lat": 45.266846,
    "lon": 19.834048
  },
  {
    "name": "Liman",
    "reading": 61,
    "lat": 45.242672,
    "lon": 19.849538
  },
  {
    "name": "Rainbow Bridge",
    "reading": 0,
    "lat": 45.254688,
    "lon": 19.855181
  },
  {
    "name": "Bulevar",
    "reading": 100,
    "lat": 45.247919,
    "lon": 19.839199
  }
]